{"type":"FeatureCollection","features":[{"geometry":{"coordinates":[-2.9658622,50.8727001],"crs":{"properties":{"name":"EPSG:4326"},"type":"name"},"type":"Point"},"properties":{"name":"Chard","felt:color":"#C93535","felt:hasLongDescription":false,"felt:id":"74unYe9AGSG6baWcOQPs52D","felt:locked":false,"felt:ordering":1740924207731593,"felt:parentId":"oKQ1cxjsT86cI9BqPM5vS5B","felt:radiusDisplayAngle":90,"felt:symbol":"dot","felt:type":"Place","felt:widthScale":1},"type":"Feature"},{"geometry":{"coordinates":[-2.7957029,50.8848487],"crs":{"properties":{"name":"EPSG:4326"},"type":"name"},"type":"Point"},"properties":{"name":"Crewkerne","felt:color":"#C93535","felt:id":"9AFbhiIkGT9BqtUl0EmxltFD","felt:locked":false,"felt:ordering":1740924217043458,"felt:parentId":"oKQ1cxjsT86cI9BqPM5vS5B","felt:radiusDisplayAngle":90,"felt:symbol":"dot","felt:type":"Place","felt:widthScale":1},"type":"Feature"},{"geometry":{"coordinates":[-2.6335186,50.9407594],"crs":{"properties":{"name":"EPSG:4326"},"type":"name"},"type":"Point"},"properties":{"name":"Yeovil","felt:color":"#C93535","felt:id":"PRlN9C0xsQFeWfIil2SKiHB","felt:locked":false,"felt:ordering":1740924225179119,"felt:parentId":"oKQ1cxjsT86cI9BqPM5vS5B","felt:radiusDisplayAngle":90,"felt:symbol":"dot","felt:type":"Place","felt:widthScale":1},"type":"Feature"},{"geometry":{"coordinates":[-2.4555375,50.6069786],"crs":{"properties":{"name":"EPSG:4326"},"type":"name"},"type":"Point"},"properties":{"name":"Weymouth","felt:color":"#C93535","felt:id":"ZlndnUEVQtqOOZujQdBtnA","felt:locked":false,"felt:ordering":1740924235217621,"felt:parentId":"oKQ1cxjsT86cI9BqPM5vS5B","felt:radiusDisplayAngle":90,"felt:symbol":"dot","felt:type":"Place","felt:widthScale":1},"type":"Feature"},{"geometry":{"coordinates":[-2.7583627,50.7336306],"crs":{"properties":{"name":"EPSG:4326"},"type":"name"},"type":"Point"},"properties":{"name":"Bridport","felt:color":"#C93535","felt:id":"3srM9BvcKQeun8vB5FHBDTC","felt:locked":false,"felt:ordering":1740924243510819,"felt:parentId":"oKQ1cxjsT86cI9BqPM5vS5B","felt:radiusDisplayAngle":90,"felt:symbol":"dot","felt:type":"Place","felt:widthScale":1},"type":"Feature"},{"geometry":{"coordinates":[-2.4381325,50.7153116],"crs":{"properties":{"name":"EPSG:4326"},"type":"name"},"type":"Point"},"properties":{"name":"Dorchester","felt:color":"#C93535","felt:id":"hi0X9AmbOSXebYNekRlly3A","felt:locked":false,"felt:ordering":1740924256829538,"felt:parentId":"oKQ1cxjsT86cI9BqPM5vS5B","felt:radiusDisplayAngle":90,"felt:symbol":"dot","felt:type":"Place","felt:widthScale":1},"type":"Feature"},{"geometry":{"coordinates":[-2.16174,50.86073],"crs":{"properties":{"name":"EPSG:4326"},"type":"name"},"type":"Point"},"properties":{"name":"Blandford","felt:color":"#C93535","felt:id":"Xb9BtBNjCTmKjJgD09AAJW0B","felt:locked":false,"felt:ordering":1740924264456652,"felt:parentId":"oKQ1cxjsT86cI9BqPM5vS5B","felt:radiusDisplayAngle":90,"felt:symbol":"dot","felt:type":"Place","felt:widthScale":1},"type":"Feature"},{"geometry":{"coordinates":[-2.3051591,50.9267567],"crs":{"properties":{"name":"EPSG:4326"},"type":"name"},"type":"Point"},"properties":{"name":"Sturminster Newton","felt:color":"#C93535","felt:id":"jLvMiKqxSl9B0pS9Ab3s9Ai5A","felt:locked":false,"felt:ordering":1740924280009097,"felt:parentId":"oKQ1cxjsT86cI9BqPM5vS5B","felt:radiusDisplayAngle":90,"felt:symbol":"dot","felt:type":"Place","felt:widthScale":1},"type":"Feature"},{"geometry":{"coordinates":[-2.1975503,51.0058399],"crs":{"properties":{"name":"EPSG:4326"},"type":"name"},"type":"Point"},"properties":{"name":"Shaftesbury","felt:color":"#C93535","felt:id":"xfisBocQQEqbuLmRiiWOlC","felt:locked":false,"felt:ordering":1740924289488795,"felt:parentId":"oKQ1cxjsT86cI9BqPM5vS5B","felt:radiusDisplayAngle":90,"felt:symbol":"dot","felt:type":"Place","felt:widthScale":1},"type":"Feature"},{"geometry":{"coordinates":[-1.9798261,50.7189213],"crs":{"properties":{"name":"EPSG:4326"},"type":"name"},"type":"Point"},"properties":{"name":"Poole","felt:color":"#C93535","felt:id":"Qdr3YTiCTei12o4W4F6LBC","felt:locked":false,"felt:ordering":1740924299406219,"felt:parentId":"oKQ1cxjsT86cI9BqPM5vS5B","felt:radiusDisplayAngle":90,"felt:symbol":"dot","felt:type":"Place","felt:widthScale":1},"type":"Feature"},{"geometry":{"coordinates":[-1.7910887,50.8460361],"crs":{"properties":{"name":"EPSG:4326"},"type":"name"},"type":"Point"},"properties":{"name":"Ringwood","felt:color":"#C93535","felt:id":"n2fvnOxhROKWaRJzrvlfPC","felt:locked":false,"felt:ordering":1740924307372401,"felt:parentId":"oKQ1cxjsT86cI9BqPM5vS5B","felt:radiusDisplayAngle":90,"felt:symbol":"dot","felt:type":"Place","felt:widthScale":1},"type":"Feature"},{"geometry":{"coordinates":[-1.7818034,50.738359],"crs":{"properties":{"name":"EPSG:4326"},"type":"name"},"type":"Point"},"properties":{"name":"Christchurch","felt:color":"#C93535","felt:id":"dLUJvfszSreXUpavKAa3oD","felt:locked":false,"felt:ordering":1740924318758520,"felt:parentId":"oKQ1cxjsT86cI9BqPM5vS5B","felt:radiusDisplayAngle":90,"felt:symbol":"dot","felt:type":"Place","felt:widthScale":1},"type":"Feature"},{"geometry":{"coordinates":[-1.6550608,50.7530988],"crs":{"properties":{"name":"EPSG:4326"},"type":"name"},"type":"Point"},"properties":{"name":"New Milton","felt:color":"#C93535","felt:id":"TdfJqChFRymkHMnn0o1DnD","felt:locked":false,"felt:ordering":1740924328190288,"felt:parentId":"oKQ1cxjsT86cI9BqPM5vS5B","felt:radiusDisplayAngle":90,"felt:symbol":"dot","felt:type":"Place","felt:widthScale":1},"type":"Feature"},{"geometry":{"coordinates":[-1.5489512,50.7577513],"crs":{"properties":{"name":"EPSG:4326"},"type":"name"},"type":"Point"},"properties":{"name":"Lymington","felt:color":"#C93535","felt:id":"4iaRgeMARXGBMMKCgBgeSB","felt:locked":false,"felt:ordering":1740924342202421,"felt:parentId":"oKQ1cxjsT86cI9BqPM5vS5B","felt:radiusDisplayAngle":90,"felt:symbol":"dot","felt:type":"Place","felt:widthScale":1},"type":"Feature"},{"geometry":{"coordinates":[-1.4887856,50.918871],"crs":{"properties":{"name":"EPSG:4326"},"type":"name"},"type":"Point"},"properties":{"name":"Totton","felt:color":"#C93535","felt:id":"qbB0E17ZSDCCzk9BMPQdQZC","felt:locked":false,"felt:ordering":1740924348285661,"felt:parentId":"oKQ1cxjsT86cI9BqPM5vS5B","felt:radiusDisplayAngle":90,"felt:symbol":"dot","felt:type":"Place","felt:widthScale":1},"type":"Feature"},{"geometry":{"coordinates":[-1.404304,50.9048821],"crs":{"properties":{"name":"EPSG:4326"},"type":"name"},"type":"Point"},"properties":{"name":"Southampton","felt:color":"#C93535","felt:id":"6qIWzVAbT6KYDG9AyqmtWZA","felt:locked":false,"felt:ordering":1740924354102610,"felt:parentId":"oKQ1cxjsT86cI9BqPM5vS5B","felt:radiusDisplayAngle":90,"felt:symbol":"dot","felt:type":"Place","felt:widthScale":1},"type":"Feature"},{"geometry":{"coordinates":[-0.9370884,50.8480655],"crs":{"properties":{"name":"EPSG:4326"},"type":"name"},"type":"Point"},"properties":{"name":"Emsworth","felt:color":"#C93535","felt:id":"L2Jml09CBT529BAeCxQxsktA","felt:locked":false,"felt:ordering":1740924361428945,"felt:parentId":"oKQ1cxjsT86cI9BqPM5vS5B","felt:radiusDisplayAngle":90,"felt:symbol":"dot","felt:type":"Place","felt:widthScale":1},"type":"Feature"},{"geometry":{"coordinates":[-1.1758978,50.8523437],"crs":{"properties":{"name":"EPSG:4326"},"type":"name"},"type":"Point"},"properties":{"name":"Fareham","felt:color":"#C93535","felt:id":"DL5FXCaXSE2NvXdS4iehaB","felt:locked":false,"felt:ordering":1740924372101137,"felt:parentId":"oKQ1cxjsT86cI9BqPM5vS5B","felt:radiusDisplayAngle":90,"felt:symbol":"dot","felt:type":"Place","felt:widthScale":1},"type":"Feature"},{"geometry":{"coordinates":[-0.9376911,51.0039448],"crs":{"properties":{"name":"EPSG:4326"},"type":"name"},"type":"Point"},"properties":{"name":"Petersfield","felt:color":"#C93535","felt:id":"FUc0z9BApSQqvpiiAs0NVAC","felt:locked":false,"felt:ordering":1740924379035789,"felt:parentId":"oKQ1cxjsT86cI9BqPM5vS5B","felt:radiusDisplayAngle":90,"felt:symbol":"dot","felt:type":"Place","felt:widthScale":1},"type":"Feature"},{"geometry":{"coordinates":[-1.2979015,50.7624211],"crs":{"properties":{"name":"EPSG:4326"},"type":"name"},"type":"Point"},"properties":{"name":"Cowes","felt:color":"#C93535","felt:id":"2MMbV03PTGSIRpTV9AmhZwD","felt:locked":false,"felt:ordering":1740924387637524,"felt:parentId":"oKQ1cxjsT86cI9BqPM5vS5B","felt:radiusDisplayAngle":90,"felt:symbol":"dot","felt:type":"Place","felt:widthScale":1},"type":"Feature"},{"geometry":{"coordinates":[-1.1632129,50.7300036],"crs":{"properties":{"name":"EPSG:4326"},"type":"name"},"type":"Point"},"properties":{"name":"Ryde","felt:color":"#C93535","felt:id":"8LxaijUvR3Cjdx8R9AtS9AQD","felt:locked":false,"felt:ordering":1740924398571731,"felt:parentId":"oKQ1cxjsT86cI9BqPM5vS5B","felt:radiusDisplayAngle":90,"felt:symbol":"dot","felt:type":"Place","felt:widthScale":1},"type":"Feature"},{"geometry":{"coordinates":[-1.2931902,50.6994792],"crs":{"properties":{"name":"EPSG:4326"},"type":"name"},"type":"Point"},"properties":{"name":"Newport","felt:color":"#C93535","felt:hasLongDescription":false,"felt:id":"D2lbwgRJSOin3kUwsHWNLD","felt:locked":false,"felt:ordering":1740924407057339,"felt:parentId":"oKQ1cxjsT86cI9BqPM5vS5B","felt:radiusDisplayAngle":90,"felt:symbol":"dot","felt:type":"Place","felt:widthScale":1},"type":"Feature"}]}